City_ID,City,Cloudiness,Country,Date,Humidity,Lat,Lng,Max Temp,Wind Speed
0,dikson,56,RU,1616122375,97,73.5069,80.5464,-32.02,3.95
1,ostrovnoy,99,RU,1616122471,84,68.0531,39.5131,-10.47,2.64
2,ponta do sol,20,PT,1616122401,67,32.6667,-17.1,16.67,4.12
3,ushuaia,40,AR,1616122295,71,-54.8,-68.3,8.0,2.06
4,san cristobal,75,VE,1616122448,100,7.7669,-72.225,24.0,2.06
5,bredasdorp,100,ZA,1616122373,94,-34.5322,20.0403,16.0,3.6
6,olafsvik,100,IS,1616122478,92,64.8945,-23.7142,4.24,0.75
7,touba,81,CI,1616122574,81,8.2833,-7.6833,22.05,2.28
8,qaanaaq,31,GL,1616122376,79,77.484,-69.3632,-25.27,3.38
9,saldanha,100,ZA,1616122409,89,-33.0117,17.9442,16.63,5.69
10,punta arenas,75,CL,1616122374,76,-53.15,-70.9167,10.0,3.09
11,jacqueville,0,CI,1616122486,94,5.2052,-4.4146,24.0,2.06
12,albany,75,US,1616122378,75,42.6001,-73.9662,3.0,6.69
13,port alfred,66,ZA,1616122376,87,-33.5906,26.891,21.3,10.25
14,vila franca do campo,75,PT,1616122576,77,37.7167,-25.4333,15.0,4.12
15,straumen,75,NO,1616122576,86,63.8709,11.2999,1.67,3.09
16,hermanus,100,ZA,1616122384,94,-34.4187,19.2345,16.11,4.05
17,kaabong,100,UG,1616122577,78,3.4836,34.1492,18.96,4.22
18,saint-philippe,0,RE,1616122387,69,-21.3585,55.7679,24.0,3.09
19,longyearbyen,90,SJ,1616122295,100,78.2186,15.6401,-1.0,11.32
20,sao filipe,2,CV,1616122373,78,14.8961,-24.4956,21.51,2.38
21,cidreira,25,BR,1616122387,82,-30.1811,-50.2056,21.3,3.56
22,kruisfontein,2,ZA,1616122409,73,-34.0033,24.7314,19.44,0.89
23,victoria,64,HK,1616122166,84,22.2855,114.1577,25.56,1.79
24,maniitsoq,100,GL,1616122578,90,65.4167,-52.9,-7.52,8.84
25,upernavik,100,GL,1616122295,94,72.7868,-56.1549,-19.81,3.11
26,jamestown,1,US,1616122376,64,42.097,-79.2353,1.0,8.17
27,torbay,90,CA,1616122436,87,47.6666,-52.7314,2.22,10.8
28,laguna,90,US,1616122379,94,38.421,-121.4238,12.22,2.06
29,mecca,0,SA,1616122215,53,21.4267,39.8261,23.74,2.12
30,talara,100,PE,1616122580,80,-4.5772,-81.2719,24.75,4.34
31,puerto leguizamo,100,CO,1616122449,97,-0.1934,-74.7819,22.63,1.08
32,kavali,97,IN,1616122581,66,14.9167,79.9833,26.05,1.62
33,santa cruz de tenerife,20,ES,1616122581,94,28.4682,-16.2546,17.22,10.8
34,kilindoni,99,TZ,1616122581,71,-7.9139,39.6668,28.12,2.58
35,tasiilaq,75,GL,1616122404,69,65.6145,-37.6368,0.0,2.57
36,hithadhoo,100,MV,1616122388,70,-0.6,73.0833,28.31,2.82
37,port elizabeth,0,ZA,1616122289,83,-33.918,25.5701,20.0,12.35
38,mahebourg,20,MU,1616122388,94,-20.4081,57.7,22.0,1.54
39,maceio,20,BR,1616122582,94,-9.6658,-35.7353,25.0,0.51
40,kalmunai,100,LK,1616122583,80,7.4167,81.8167,26.74,2.96
41,guider,53,CM,1616122583,27,9.9342,13.9486,26.7,0.87
42,cape town,75,ZA,1616122247,94,-33.9258,18.4232,17.22,4.12
43,arlit,4,NE,1616122507,17,18.7369,7.3853,24.0,1.26
44,clyde river,1,CA,1616122397,76,70.4692,-68.5914,-29.0,1.54
45,bubaque,0,GW,1616122454,73,11.2833,-15.8333,23.97,7.19
46,newcastle,90,AU,1616122584,78,-32.9272,151.7765,23.33,6.69
47,koungou,0,YT,1616122585,89,-12.7336,45.2042,26.0,0.51
48,atar,0,MR,1616122485,13,20.5169,-13.0499,20.9,1.64
49,mao,0,ES,1616122459,57,39.8885,4.2658,9.0,6.17
50,inta,100,RU,1616122586,94,66.0317,60.1659,-14.29,4.86
51,huarmey,100,PE,1616122473,78,-10.0681,-78.1522,22.27,2.68
52,grand gaube,3,MU,1616122396,78,-20.0064,57.6608,24.44,1.34
53,carutapera,100,BR,1616122587,91,-1.195,-46.02,23.6,0.93
54,henties bay,0,NA,1616122587,90,-22.116,14.2845,17.22,0.45
55,klaksvik,40,FO,1616122383,100,62.2266,-6.589,7.0,6.17
56,ribeira grande,98,PT,1616122385,82,38.5167,-28.7,15.42,10.42
57,santa barbara,1,US,1616122587,66,34.7333,-120.0343,13.33,2.06
58,pizarro,100,CO,1616122588,82,4.9533,-77.366,25.44,0.8
59,turukhansk,99,RU,1616122455,95,65.8167,87.9833,-18.94,3.87
60,oktyabrskoye,4,RU,1616122588,100,43.0645,44.7417,-1.0,3.0
61,narsaq,90,GL,1616122389,54,60.9167,-46.05,-2.0,3.09
62,berlevag,75,NO,1616122441,83,70.8578,29.0864,-6.13,10.52
63,new waterford,100,US,1616122589,67,40.8451,-80.6145,3.89,3.13
64,arraial do cabo,86,BR,1616122397,87,-22.9661,-42.0278,24.7,9.72
65,nouadhibou,0,MR,1616122444,82,20.931,-17.0347,17.0,7.72
66,tangi,20,PK,1616122589,59,34.3006,71.6536,17.0,3.09
67,mar del plata,0,AR,1616122384,87,-38.0023,-57.5575,12.78,0.33
68,muzhi,100,RU,1616122590,96,65.3667,64.6667,-16.47,3.47
69,chapais,1,CA,1616122382,72,49.7834,-74.8492,-16.0,2.57
70,lagoa,100,PT,1616122393,81,39.05,-27.9833,14.76,9.87
71,lieksa,76,FI,1616122591,92,63.3167,30.0167,-13.54,4.07
72,kulti,40,IN,1616122591,69,23.7333,86.85,26.0,2.06
73,busselton,86,AU,1616122388,32,-33.65,115.3333,28.54,4.05
74,diego de almagro,1,CL,1616122592,84,-26.3667,-70.05,12.07,0.21
75,oak park,75,US,1616122593,65,41.885,-87.7845,3.33,9.26
76,doha,0,QA,1616122580,34,25.2867,51.5333,27.0,2.06
77,kermanshah,0,IR,1616122594,60,34.3142,47.065,5.0,4.12
78,raga,100,SS,1616122594,69,8.4596,25.678,23.3,1.77
79,saint george,1,US,1616122418,42,37.1041,-113.5841,17.78,4.63
80,hobyo,37,SO,1616122392,81,5.3505,48.5268,26.94,6.02
81,aksu,0,CN,1616122594,59,41.1231,80.2644,4.14,1.6
82,asekeyevo,100,RU,1616122595,95,53.5742,52.7972,-2.53,3.59
83,yabrud,87,SY,1616122596,78,33.9674,36.6574,3.89,0.45
84,mpongwe,84,ZM,1616122596,97,-13.5091,28.155,16.57,1.19
85,nanortalik,96,GL,1616122390,73,60.1432,-45.2371,-3.5,1.22
86,bandarbeyla,68,SO,1616122390,77,9.4942,50.8122,24.62,3.13
87,mozarlandia,100,BR,1616122597,93,-14.7447,-50.5706,22.08,1.82
88,riyadh,0,SA,1616122402,38,24.6877,46.7219,23.0,5.14
89,fasa,0,IR,1616122597,43,28.9383,53.6482,12.0,1.12
90,georgetown,20,MY,1616122167,48,5.4112,100.3354,31.0,2.06
91,constitucion,0,CL,1616122429,85,-35.3333,-72.4167,11.33,1.38
92,bambous virieux,20,MU,1616122439,94,-20.3428,57.7575,24.44,1.54
93,castro,46,BR,1616122378,98,-24.7911,-50.0119,17.14,3.75
94,belyy yar,31,RU,1616122385,85,53.6039,91.3903,-12.0,1.0
95,maracacume,100,BR,1616122598,97,-2.0428,-45.9592,22.31,0.73
96,esfarayen,20,IR,1616122599,66,37.0765,57.5101,11.0,4.12
97,bereda,100,ES,1616122599,87,43.2686,-7.5406,6.11,2.24
98,margate,92,GB,1616122472,82,51.3813,1.3862,8.33,3.13
99,hofn,0,IS,1616122497,90,64.2539,-15.2082,7.41,7.02
100,limoux,90,FR,1616122600,75,42.9167,2.1667,6.11,5.66
101,mindelo,20,CV,1616122600,77,16.8901,-24.9804,20.0,8.75
102,nicoya,0,CR,1616122600,58,10.1483,-85.452,29.0,1.54
103,bengkulu,100,ID,1616122240,86,-3.8004,102.2655,24.52,1.68
104,trelew,96,AR,1616122602,31,-43.249,-65.3051,20.31,8.12
105,cumberland,90,US,1616122602,77,35.0502,-78.8664,19.44,4.12
106,santa maria,20,BR,1616122432,100,-29.6842,-53.8069,16.0,0.51
107,pisco,0,PE,1616122380,78,-13.7,-76.2167,21.0,5.14
108,lebu,3,CL,1616122407,88,-37.6167,-73.65,11.76,1.58
109,kudahuvadhoo,21,MV,1616122603,72,2.6708,72.8944,27.92,3.06
110,grindavik,90,IS,1616122451,100,63.8424,-22.4338,7.0,10.29
111,giyani,20,ZA,1616122605,84,-23.3025,30.7187,20.84,2.31
112,dumjor,40,IN,1616122605,57,22.6408,88.2203,27.0,2.65
113,mabama,20,TZ,1616122606,88,-5.1333,32.5333,19.0,1.41
114,dudinka,100,RU,1616122372,92,69.4058,86.1778,-28.22,2.26
115,vila velha,20,BR,1616122420,88,-20.3297,-40.2925,24.0,2.06
116,sao joao da barra,70,BR,1616122607,86,-21.6403,-41.0511,24.71,7.34
117,codrington,0,AU,1616122389,56,-38.2667,141.9667,23.46,4.16
118,korla,91,CN,1616122388,86,41.7597,86.1469,0.91,1.97
119,paamiut,95,GL,1616122378,67,61.994,-49.6678,-6.01,7.42
120,veraval,0,IN,1616122415,75,20.9,70.3667,24.59,4.67
121,bosaso,8,SO,1616122608,73,11.2842,49.1816,23.34,3.21
122,tikrit,0,IQ,1616122608,46,34.6071,43.6782,12.41,0.81
123,mana,65,GF,1616122609,81,5.6592,-53.7767,23.89,3.06
124,coquimbo,0,CL,1616122501,77,-29.9533,-71.3436,15.0,1.03
125,strezhevoy,0,RU,1616122609,64,60.7333,77.5889,-2.0,4.0
126,tabory,100,RU,1616122610,92,58.5198,64.5495,-6.78,3.07
127,east london,0,ZA,1616122377,87,-33.0153,27.9116,21.29,3.38
128,amapa,100,BR,1616122610,94,1.0,-52.0,21.72,1.52
129,nguru,44,NG,1616122610,15,12.8791,10.4526,25.99,2.84
130,bhandara,75,IN,1616122610,68,21.1667,79.65,22.0,1.85
131,vardo,53,NO,1616122376,77,70.3705,31.1107,-4.8,6.9
132,iracoubo,52,GF,1616122611,82,5.4802,-53.2011,24.15,3.31
133,souillac,20,MU,1616122410,94,-20.5167,57.5167,22.0,1.54
134,faya,0,SA,1616122468,82,18.3851,42.4509,13.0,1.13
135,karasjok,84,NO,1616122611,73,69.4719,25.5112,-10.0,8.75
136,hualmay,100,PE,1616122612,79,-11.0964,-77.6139,21.72,2.63
137,sambir,99,UA,1616122612,83,49.5183,23.1975,-4.44,1.84
138,sioux lookout,40,CA,1616122385,37,50.1001,-91.917,1.0,1.54
139,sisimiut,95,GL,1616122612,69,66.9395,-53.6735,-10.66,8.39
140,marawi,58,PH,1616122613,78,7.9986,124.2928,28.33,2.24
141,mbandaka,68,CD,1616122613,93,0.0487,18.2603,21.62,0.47
142,plettenberg bay,68,ZA,1616122614,81,-34.0527,23.3716,18.56,4.39
143,ardahan,55,TR,1616122614,91,41.1087,42.7022,-11.19,0.75
144,thinadhoo,62,MV,1616122614,69,0.5333,72.9333,28.27,2.17
145,salalah,0,OM,1616122415,43,17.0151,54.0924,22.0,1.54
146,cozumel,20,MX,1616122427,78,20.5083,-86.9458,26.0,2.57
147,noyabrsk,100,RU,1616122615,95,63.1994,75.4507,-3.75,5.67
148,nuuk,75,GL,1616122379,68,64.1835,-51.7216,-4.0,8.75
149,mazagao,75,BR,1616122615,83,-0.115,-51.2894,27.0,1.54
150,bafq,95,IR,1616122616,34,31.6128,55.4107,20.18,6.03
151,oranjemund,0,NA,1616122616,85,-28.55,16.4333,15.25,4.97
152,canguaretama,20,BR,1616122616,83,-6.38,-35.1289,26.0,2.06
153,ilulissat,20,GL,1616122412,61,69.2167,-51.1,-12.0,2.57
154,barcelos,0,PT,1616122373,50,41.5388,-8.6151,12.0,3.09
155,tacuarembo,0,UY,1616122403,67,-31.7333,-55.9833,13.27,2.56
156,chuy,1,UY,1616122390,79,-33.6971,-53.4616,14.24,2.73
157,fenoarivo,75,MG,1616122617,100,-18.933,47.4354,17.0,1.54
158,telford,90,GB,1616122617,93,52.6766,-2.4493,8.0,4.12
159,kasama,89,ZM,1616122617,97,-10.2129,31.1808,15.4,1.23
160,varadero,18,CU,1616122618,83,23.1536,-81.2514,23.0,3.6
161,acopiara,7,BR,1616122618,97,-6.0953,-39.4525,21.19,2.01
162,dawlatabad,29,AF,1616122618,51,36.4141,64.9053,16.89,1.62
163,moengo,64,SR,1616122618,90,5.6167,-54.4,21.37,0.83
164,brae,90,GB,1616122416,87,60.3964,-1.353,7.0,2.57
165,carnarvon,0,AU,1616122384,19,-24.8667,113.6333,32.0,7.72
166,bathsheba,75,BB,1616122434,69,13.2167,-59.5167,24.0,3.6
167,siguiri,95,GN,1616122619,28,11.6667,-9.5,27.62,0.73
168,saint-augustin,100,CA,1616122475,96,51.226,-58.6502,0.75,7.42
169,kulhudhuffushi,55,MV,1616122620,66,6.6221,73.07,27.97,2.7
170,robore,100,BO,1616122620,93,-18.3333,-59.75,21.25,1.15
171,hwange,29,ZW,1616122621,82,-18.3693,26.5019,19.32,0.91
172,pachino,3,IT,1616122621,93,36.7186,15.0907,5.0,1.54
173,araioses,100,BR,1616122621,89,-2.89,-41.9031,24.51,2.02
174,lokosovo,100,RU,1616122622,84,61.1333,74.8167,-3.88,5.93
175,skjervoy,100,NO,1616122622,59,70.0311,20.9714,-2.91,9.04
176,najran,0,SA,1616122622,25,17.4924,44.1277,17.0,0.65
177,floresti,100,MD,1616122622,88,47.8933,28.3014,0.29,2.13
178,caravelas,33,BR,1616122395,89,-17.7125,-39.2481,24.27,2.12
179,general roca,0,AR,1616122623,59,-39.0333,-67.5833,16.0,2.57
180,los llanos de aridane,0,ES,1616122399,63,28.6585,-17.9182,16.0,3.6
181,umm lajj,0,SA,1616122623,45,25.0213,37.2685,21.48,4.62
182,garissa,99,KE,1616122623,77,-0.4536,39.6401,25.32,3.99
183,gazanjyk,99,TM,1616122623,73,39.2446,55.5154,11.47,1.53
184,dekar,14,BW,1616122433,64,-21.5333,21.9333,20.4,2.06
185,karpathos,12,GR,1616122624,58,35.507,27.2132,14.0,4.63
186,terre haute,90,US,1616122624,81,39.4667,-87.4139,5.56,8.75
187,general pico,10,AR,1616122624,58,-35.6566,-63.7568,10.84,2.47
188,abalak,100,RU,1616122625,86,58.1286,68.5944,-6.81,4.56
189,radovitskiy,61,RU,1616122625,100,55.1282,39.7956,-3.33,1.24
190,taoudenni,0,ML,1616122474,16,22.6783,-3.9836,21.17,3.23
191,ancud,0,CL,1616122381,85,-41.8697,-73.8203,10.0,2.44
192,penzance,75,GB,1616122626,93,50.1186,-5.5371,9.0,9.26
193,mehamn,97,NO,1616122626,76,71.0357,27.8492,-6.42,9.03
194,saint-joseph,0,RE,1616122626,69,-21.3667,55.6167,24.0,3.09
195,richards bay,0,ZA,1616122626,93,-28.783,32.0377,21.39,1.42
196,ruangwa,45,TZ,1616122627,97,-10.0667,38.9333,20.77,0.8
197,perene,100,PE,1616122627,96,-10.9492,-75.2261,21.04,0.78
198,guiberoua,43,CI,1616122627,97,6.2392,-6.1727,21.49,1.14
199,barentu,100,ER,1616122627,70,15.1139,37.5928,18.06,2.17
200,polyarnyy,75,RU,1616122628,85,69.1989,33.4478,-11.0,1.0
201,solwezi,64,ZM,1616122628,95,-12.1688,26.3894,14.97,0.79
202,astara,40,AZ,1616122628,93,38.5,48.6667,6.0,3.09
203,dasoguz,100,TM,1616122628,76,41.8363,59.9666,8.0,3.09
204,emba,99,KZ,1616122628,88,48.8264,58.1442,0.02,7.73
205,luderitz,25,NA,1616122215,66,-26.6481,15.1594,17.13,5.6
206,novo horizonte,86,BR,1616122630,85,-21.4681,-49.2208,20.97,2.99
207,pangnirtung,0,CA,1616122390,77,66.1451,-65.7125,-27.62,1.28
208,presidente medici,100,BR,1616122460,97,-11.1753,-61.9014,21.95,0.51
209,bundu,98,IN,1616122632,53,23.1833,85.5833,22.0,0.41
210,temirtau,0,KZ,1616122632,62,50.0544,72.9483,-8.0,8.0
211,mogadishu,85,SO,1616122484,83,2.0371,45.3438,25.95,5.12
212,livenka,93,RU,1616122819,90,50.4491,38.2959,-1.94,2.75
213,neyshabur,92,IR,1616122820,45,36.2133,58.7958,15.15,1.67
214,dingle,62,PH,1616122174,66,10.9995,122.6711,30.26,3.84
215,birao,80,CF,1616122820,56,10.2849,22.7882,24.36,2.02
216,ceres,90,US,1616122820,94,37.5949,-120.9577,14.0,2.06
217,hambantota,20,LK,1616122395,100,6.1241,81.1185,25.0,2.06
218,cockburn town,11,TC,1616122401,75,21.4612,-71.1419,24.11,7.93
219,pampas,100,PE,1616122821,92,-12.4,-74.9,8.94,3.0
220,kalininsk,100,RU,1616122821,95,51.5,44.4758,-5.57,3.08
221,alausi,100,EC,1616122821,93,-2.2,-78.8333,8.95,0.96
222,gat,15,IL,1616122446,100,31.61,34.7642,11.67,1.34
223,tres arroyos,3,AR,1616122822,75,-38.3739,-60.2798,9.26,2.99
224,geraldton,0,AU,1616122682,10,-28.7667,114.6,36.0,8.75
225,achikulak,4,RU,1616122822,91,44.5517,44.8378,2.81,3.32
226,chicama,100,PE,1616122822,68,-7.8447,-79.1469,23.35,2.36
227,takoradi,98,GH,1616122333,84,4.8845,-1.7554,25.18,2.5
228,san carlos de bariloche,0,AR,1616122483,76,-41.1456,-71.3082,10.0,2.57
229,goderich,100,CA,1616122424,43,43.7501,-81.7165,-1.0,7.72
230,pudozh,100,RU,1616122823,93,61.8099,36.5345,-9.73,3.87
231,vawkavysk,44,BY,1616122823,83,53.1561,24.4513,-2.7,2.18
232,sadon,49,RU,1616122824,100,42.8518,44.0037,-1.0,3.0
233,nizwa,0,OM,1616122824,24,22.9333,57.5333,23.0,0.39
234,matara,100,LK,1616122804,73,5.9485,80.5353,27.53,0.8
235,bolzano,100,IT,1616122824,38,46.4927,11.3336,-1.67,1.28
236,donskoye,0,RU,1616122824,81,45.4552,41.9741,3.0,7.0
237,george,90,ZA,1616122825,100,-33.963,22.4617,17.0,3.6
238,rocha,60,UY,1616122446,77,-34.4833,-54.3333,12.81,1.8
239,iqaluit,1,CA,1616122457,69,63.7506,-68.5145,-28.89,4.12
240,teya,99,RU,1616122825,90,60.3778,92.6267,-7.72,3.17
241,carsamba,75,TR,1616122826,87,41.1989,36.7219,9.44,2.06
242,mizan teferi,28,ET,1616122826,93,6.9833,35.5833,16.05,1.26
243,saint anthony,1,US,1616122374,41,45.0205,-93.218,6.0,1.54
244,allapalli,15,IN,1616122826,40,19.4167,80.0667,28.93,2.66
245,namibe,57,AO,1616122385,75,-15.1961,12.1522,22.4,2.01
246,acari,100,PE,1616122827,82,-15.4311,-74.6158,22.57,1.21
247,immokalee,40,US,1616122827,83,26.4187,-81.4173,22.78,1.54
248,kamenka,99,RU,1616122485,89,51.3223,42.7678,-1.67,2.83
249,puerto colombia,0,CO,1616122827,78,10.9878,-74.9547,26.0,6.17
250,hamilton,90,US,1616122208,81,39.1834,-84.5333,5.56,11.32
251,gambela,100,ET,1616122434,62,8.25,34.5833,25.77,3.76
252,bouna,97,CI,1616122828,71,9.2667,-3.0,25.56,2.93
253,robertsport,97,LR,1616122475,85,6.7533,-11.3686,26.14,2.82
254,jaleswar,53,NP,1616122828,22,26.6471,85.8008,26.42,1.31
255,sakakah,0,SA,1616122502,38,29.9697,40.2064,14.0,2.68
256,bela,99,IN,1616122501,20,25.9333,81.9833,30.64,2.22
257,acarau,96,BR,1616122829,86,-2.8856,-40.12,25.08,2.5
258,thompson,20,CA,1616122829,48,55.7435,-97.8558,5.0,3.6
259,manacapuru,0,BR,1616122829,94,-3.2997,-60.6206,24.0,2.48
260,campana,0,AR,1616122830,82,-34.1687,-58.9591,16.11,1.05
261,mushie,100,CD,1616122830,96,-3.0167,16.9,22.32,0.9
262,karaidel,100,RU,1616122831,96,55.8337,56.9069,-4.7,2.11
263,nara,0,JP,1616122826,39,34.6851,135.8049,20.0,2.06
264,aasiaat,100,GL,1616122832,87,68.7098,-52.8699,-16.02,4.64
265,sokolo,3,ML,1616122833,10,14.7328,-6.1219,23.74,4.65
266,yar-sale,99,RU,1616122389,97,66.8333,70.8333,-21.44,4.28
267,ibra,0,OM,1616122833,31,22.6906,58.5334,22.19,0.26
268,krasnoselkup,100,RU,1616122435,95,65.7,82.4667,-13.95,4.69
269,decatur,75,US,1616122834,75,39.8403,-88.9548,5.0,10.8
270,hagere selam,55,ET,1616122835,94,6.4833,38.5167,8.78,1.92
271,akyab,62,MM,1616122835,35,20.15,92.9,26.11,1.6
272,jalu,49,LY,1616122468,34,29.0331,21.5482,15.44,4.9
273,konza,96,KE,1616122835,94,-1.7426,37.1294,15.29,1.82
274,mbamba,3,NG,1616122835,18,9.9833,13.1,24.61,0.7
275,la tuque,2,CA,1616122836,48,47.4334,-72.7824,-9.0,5.66
276,maturin,71,VE,1616122836,85,9.75,-63.1767,21.99,3.18
277,urumqi,0,CN,1616122836,63,43.801,87.6005,-3.0,2.0
278,butiama,20,TZ,1616122836,88,-1.7667,33.9667,22.0,1.1
279,bardiyah,0,LY,1616122837,70,31.7561,25.0865,12.68,4.67
280,humaita,99,BR,1616122837,98,-7.5061,-63.0208,22.66,1.38
281,itamaraca,40,BR,1616122837,73,-7.7478,-34.8256,26.0,2.06
282,vanersborg,90,SE,1616122837,86,58.3807,12.3234,-1.0,5.14
283,inndyr,75,NO,1616122837,46,67.0338,14.0276,-2.0,8.75
284,timizart,100,DZ,1616122838,90,36.8,4.2667,8.19,3.34
285,chacabuco,91,AR,1616122839,65,-34.6417,-60.4739,13.89,0.89
286,visby,20,SE,1616122839,54,57.6409,18.296,-2.0,6.17
287,guia lopes da laguna,100,BR,1616122839,93,-21.4578,-56.1142,22.39,1.59
288,castrillon,90,ES,1616122839,76,43.3979,-6.7922,8.0,2.57
289,seidu,1,SL,1616122840,76,9.0167,-10.6,20.69,1.56
290,gidam,64,IN,1616122840,27,18.9833,81.4,30.69,1.06
291,adrar,0,MR,1616122443,13,20.5022,-10.0711,19.52,1.55
292,ilave,92,PE,1616122842,88,-16.0833,-69.6667,5.7,4.59
293,morondava,63,MG,1616122465,85,-20.2833,44.2833,25.45,2.25
294,jutai,100,BR,1616122843,97,-5.1833,-68.9,23.19,1.36
295,dalen,0,NL,1616122843,95,52.6992,6.7556,0.0,1.79
296,summerville,40,US,1616122843,100,33.0185,-80.1757,19.44,2.06
297,adygeysk,20,RU,1616122843,87,44.88,39.19,5.56,4.0
298,verkhnyaya toyma,27,RU,1616122844,95,62.2349,44.9985,-14.6,2.27
299,tucuman,90,AR,1616122844,94,-26.8241,-65.2226,16.0,2.57
300,ginir,100,ET,1616122459,86,7.1333,40.7,15.34,0.97
301,kitob,100,UZ,1616122844,26,39.0843,66.8332,15.0,5.14
302,amalapuram,20,IN,1616122845,83,16.5833,82.0167,25.0,0.45
303,tessalit,3,ML,1616122464,19,20.1986,1.0114,18.61,2.98
304,ambilobe,86,MG,1616122426,93,-13.2,49.05,22.63,0.85
305,santa cruz del norte,5,CU,1616122845,83,23.1539,-81.9236,24.0,3.6
306,zhanaozen,0,KZ,1616122845,85,43.3,52.8,3.02,7.38
307,gilgit,44,PK,1616122846,57,35.9221,74.3087,6.36,1.83
308,siniscola,40,IT,1616122406,87,40.5719,9.6922,6.0,1.03
309,opuwo,100,NA,1616122205,80,-18.0607,13.84,20.36,1.3
310,vikesa,0,NO,1616122847,93,58.6376,6.0913,1.0,1.03
311,gogrial,97,SS,1616122847,66,8.5332,28.1004,24.61,1.65
312,akdepe,100,TM,1616122847,76,42.0551,59.3788,9.0,3.09
313,koszalin,100,PL,1616122848,100,54.1944,16.1722,1.11,5.1
314,karpogory,76,RU,1616122848,96,64.0019,44.4451,-19.27,2.69
315,ust-tsilma,100,RU,1616122848,94,65.441,52.1498,-15.11,3.52
316,conceicao do araguaia,100,BR,1616122848,89,-8.2578,-49.2647,23.82,0.89
317,marystown,100,CA,1616122849,93,47.1666,-55.1483,3.31,11.86
318,ikungi,87,TZ,1616122849,92,-5.1333,34.7667,15.46,3.55
319,cabedelo,0,BR,1616122849,94,-6.9811,-34.8339,25.0,2.06
320,gazalkent,0,UZ,1616122850,28,41.5581,69.7708,12.0,5.14
321,cap malheureux,3,MU,1616122407,78,-19.9842,57.6142,24.44,1.34
322,rio alejandro,69,PA,1616122850,85,9.3764,-79.7911,26.67,17.88
323,camacari,20,BR,1616122851,74,-12.6975,-38.3242,27.0,4.12
324,comodoro rivadavia,0,AR,1616122399,55,-45.8667,-67.5,17.0,3.09
325,adeje,20,ES,1616122851,67,28.1227,-16.726,17.22,2.57
326,vysotskoye,0,RU,1616122851,81,45.025,42.9064,3.0,7.0
327,alappuzha,98,IN,1616122852,75,9.49,76.3264,27.75,2.52
328,barsovo,0,RU,1616122852,51,61.1667,73.1667,-1.0,5.0
329,ponta delgada,75,PT,1616122853,77,37.7333,-25.6667,15.0,4.12
330,jiwani,0,PK,1616122853,70,25.05,61.7417,24.26,1.76
331,santo antonio do sudoeste,17,BR,1616122853,91,-26.0736,-53.7253,17.62,2.18
332,luanda,100,AO,1616122785,85,-8.8368,13.2343,25.66,3.54
333,tiznit,97,MA,1616122381,75,29.5833,-9.5,11.73,3.69
334,curico,67,CL,1616122854,59,-34.9833,-71.2333,16.0,1.54
335,daoukro,100,CI,1616122854,91,7.0591,-3.9631,22.6,1.29
336,bodden town,0,KY,1616122854,78,19.2833,-81.25,26.11,2.57
337,naryan-mar,40,RU,1616122483,97,67.6713,53.087,-25.63,4.07
338,sao goncalo,0,BR,1616122855,78,-22.8156,-43.0411,28.0,3.6
339,kurtamysh,100,RU,1616122855,92,54.9103,64.4319,-5.46,5.42
340,falkensee,46,DE,1616122855,80,52.5667,13.0833,2.22,2.64
341,presidencia roque saenz pena,29,AR,1616122855,74,-26.7852,-60.4388,20.56,1.79
342,thunder bay,1,CA,1616122855,69,48.4001,-89.3168,-2.0,1.55
343,stokmarknes,100,NO,1616122856,53,68.5646,14.9108,-1.11,4.47
344,san juan,100,AR,1616122462,66,-31.5375,-68.5364,16.72,3.93
345,hare bay,100,CA,1616122856,86,48.8499,-54.0148,1.0,4.12
346,ugoofaaru,68,MV,1616122856,67,5.6667,73.0,28.36,2.94
347,lapua,0,FI,1616122857,73,62.9693,23.0088,-10.56,0.45
348,chirongui,0,YT,1616122858,89,-12.9319,45.1483,26.0,0.51
349,lucea,40,JM,1616122858,78,18.451,-78.1736,26.0,4.63
350,the valley,20,AI,1616122396,69,18.217,-63.0578,25.0,5.66
351,asyut,0,EG,1616122377,62,27.181,31.1837,12.0,2.57
352,sompeta,100,IN,1616122858,33,18.9333,84.6,29.62,1.04
353,abu samrah,0,SY,1616122456,89,35.3029,37.1841,8.33,4.57
354,tokmak,100,UA,1616122859,88,47.2514,35.7058,5.0,5.37
355,mahibadhoo,12,MV,1616122859,69,3.7833,72.9667,28.11,1.87
356,roald,90,NO,1616122859,93,62.5833,6.1333,4.0,2.06
357,slavgorodskoye,55,RU,1616122860,88,53.0214,78.6435,-10.31,4.84
358,meshchovsk,43,RU,1616122860,96,54.3244,35.2808,-6.15,2.87
359,goundam,59,ML,1616122487,10,16.4145,-3.6708,23.59,4.43
360,belmonte,20,BR,1616122861,94,-15.8631,-38.8828,23.0,1.03
361,qasigiannguit,44,GL,1616122861,66,68.8193,-51.1922,-14.0,3.09
362,dehloran,34,IR,1616122861,35,32.6941,47.2679,16.76,2.46
363,mayor pablo lagerenza,98,PY,1616122478,76,-19.9309,-60.7718,22.39,2.18
364,aksarka,100,RU,1616122445,97,66.5606,67.7975,-22.17,5.16
365,caxito,40,AO,1616122864,83,-8.5785,13.6643,27.0,1.54
366,la palma,1,US,1616122864,62,33.8464,-118.0467,14.44,1.54
367,forssa,100,FI,1616122864,80,60.8146,23.6215,-8.89,0.89
368,andenes,90,NO,1616122387,69,69.3143,16.1194,-2.0,12.35
369,anloga,20,GH,1616122464,83,5.7947,0.8973,25.0,2.57
370,kikwit,93,CD,1616122865,94,-5.041,18.8162,21.34,0.69
371,pahalgam,43,IN,1616122752,64,34.0333,75.3333,4.16,2.67
372,synya,100,RU,1616122476,95,65.3718,58.0387,-10.09,3.03
373,cubuk,75,TR,1616122866,86,40.2386,33.0322,1.11,0.51
374,kataysk,100,RU,1616122866,93,56.289,62.5841,-6.18,5.28
375,kajaani,0,FI,1616122866,84,64.2273,27.7285,-19.0,1.03
376,porto novo,20,BJ,1616122467,83,6.4965,2.6036,25.0,1.03
377,tahta,0,EG,1616122867,50,26.7693,31.5021,13.0,2.06
378,huaral,0,PE,1616122868,73,-11.495,-77.2078,22.0,4.12
379,jijiga,3,ET,1616122868,85,9.35,42.8,16.2,0.97
380,paita,100,PE,1616122384,76,-5.0892,-81.1144,24.71,4.76
381,maraa,92,BR,1616122868,97,-1.8333,-65.3667,22.61,1.47
382,araouane,41,ML,1616122869,13,18.9048,-3.5265,20.85,2.5
383,sawakin,7,SD,1616122869,69,19.1059,37.3321,23.19,4.38
384,pavlogradka,100,RU,1616122869,76,54.2024,73.5592,-8.5,5.25
385,kharitonovo,87,RU,1616122870,96,61.4009,47.4978,-8.75,2.15
386,ust-shonosha,97,RU,1616122870,96,61.1531,41.343,-12.66,2.83
387,manta,75,EC,1616122870,78,-0.95,-80.7333,26.0,1.54
388,goba,74,ET,1616122871,85,7.0167,39.9833,10.55,0.63
389,blackpool,48,GB,1616122815,81,53.8167,-3.05,10.56,6.88
390,key west,1,US,1616122871,69,24.5557,-81.7826,26.0,3.09
391,vuktyl,100,RU,1616122871,96,63.8567,57.3094,-5.94,1.09
392,harqalah,0,TN,1616122871,76,36.0303,10.509,12.0,1.03
393,barra de sao francisco,100,BR,1616122872,96,-18.755,-40.8908,20.81,0.78
394,agbor,100,NG,1616122872,90,6.2518,6.1934,24.05,1.87
395,inirida,77,CO,1616122394,90,3.8653,-67.9239,23.72,0.91
396,batangafo,96,CF,1616122872,65,7.3008,18.2833,22.48,1.38
397,buzmeyin,75,TM,1616122872,67,38.0507,58.2056,14.0,10.29
398,pokhara,99,NP,1616122637,17,28.2333,83.9833,26.7,0.89
399,ambikapur,84,IN,1616122863,19,23.1167,83.2,27.32,0.21
400,magaria,89,NE,1616122873,20,12.9983,8.9099,22.34,0.64
401,marzuq,95,YE,1616122472,59,14.4,46.4667,12.94,0.62
402,olinda,40,BR,1616122417,73,-8.0089,-34.8553,26.0,2.06
403,parrita,0,CR,1616122428,73,9.5201,-84.3225,23.0,1.54
404,oderzo,100,IT,1616122874,80,45.7882,12.5019,3.89,1.79
405,cuamba,91,MZ,1616122874,98,-14.8031,36.5372,19.78,0.85
406,hatillo,40,PR,1616122874,78,18.4863,-66.8254,23.33,4.63
407,maridi,30,SS,1616122494,81,4.9158,29.4742,19.44,0.67
408,les cayes,78,HT,1616122875,78,18.2,-73.75,24.81,2.51
409,kitui,100,KE,1616122877,91,-1.367,38.0106,18.9,1.52
410,nioro,19,GM,1616122877,81,13.35,-15.75,16.93,2.37
411,male,75,MV,1616122594,83,4.1748,73.5089,28.0,1.74
412,parry sound,0,CA,1616122877,34,45.3501,-80.033,-2.0,5.47
413,bull savanna,0,JM,1616122878,82,17.8868,-77.5902,22.88,3.15
414,bor,90,RU,1616122878,100,56.3567,44.0669,-4.0,1.06
415,mtwara,20,TZ,1616122879,94,-10.2667,40.1833,23.0,3.09
416,ishurdi,25,BD,1616122879,22,24.1333,89.0833,29.31,2.38
417,viradouro,0,BR,1616122879,88,-20.8731,-48.2969,23.0,3.6
418,nalut,60,LY,1616122880,27,30.3333,10.85,16.7,0.59
419,bonavista,100,CA,1616122880,86,48.6499,-53.1147,1.67,4.12
420,yangambi,32,CD,1616122881,79,0.8102,24.4336,20.83,0.63
421,husavik,20,IS,1616122402,71,66.0449,-17.3389,9.0,2.57
422,westport,90,US,1616122464,81,41.1415,-73.3579,7.0,10.29
423,denia,93,ES,1616122882,84,38.8408,0.1057,10.0,0.89
424,staryy nadym,100,RU,1616122882,94,65.6118,72.6842,-10.75,3.8
425,kavaratti,57,IN,1616122882,66,10.5669,72.642,28.68,3.72
426,calama,0,CL,1616122882,26,-22.4667,-68.9333,14.0,5.14
427,banda aceh,6,ID,1616122883,72,5.5577,95.3222,28.81,4.08
428,saint-pierre,0,RE,1616122444,69,-21.3393,55.4781,24.0,3.09
429,tete,2,MZ,1616122883,98,-16.1564,33.5867,20.83,0.97
430,qarqin,100,AF,1616122883,24,37.4185,66.0436,21.37,13.26
431,kamenica,100,DE,1616122884,94,50.8333,12.9167,0.56,2.47
432,kashan,76,IR,1616122884,40,33.9831,51.4364,16.23,1.8
433,santona,75,ES,1616122427,87,43.4439,-3.4576,10.0,1.03
434,villaviciosa,100,ES,1616122884,67,43.4813,-5.4357,10.56,1.78
435,la ligua,0,CL,1616122458,90,-32.4524,-71.2311,10.07,0.4
436,tirano,100,IT,1616122885,46,46.2154,10.1679,3.33,1.56
437,tangier,0,MA,1616122885,82,35.7806,-5.8137,13.0,5.14
438,segou,97,ML,1616122885,13,13.4317,-6.2157,28.86,4.84
439,saqqez,0,IR,1616122885,77,36.2499,46.2735,0.83,1.93
440,praia,0,CV,1616122384,77,14.9215,-23.5087,20.0,5.14
441,san lawrenz,20,MT,1616122886,87,36.0553,14.204,11.11,2.06
442,nema,61,RU,1616122886,96,57.5067,50.5011,-10.64,1.94
443,buritis,100,BR,1616122886,82,-15.6178,-46.4233,21.33,0.88
444,stephenville,1,US,1616122887,50,32.2207,-98.2023,10.0,4.63
445,khandbari,18,NP,1616122887,22,27.3747,87.2039,24.31,0.74
446,sassandra,100,CI,1616122887,90,4.95,-6.0833,23.84,1.94
447,marsa matruh,0,EG,1616122380,71,31.3525,27.2453,9.0,1.03
448,konevo,100,RU,1616122888,92,62.1215,39.3192,-11.8,3.41
449,anori,100,BR,1616122889,99,-3.7728,-61.6442,21.63,1.61
450,iacu,17,BR,1616122889,92,-12.7672,-40.2117,20.98,0.59
451,nawabganj,56,BD,1616122889,17,24.5911,88.271,29.9,2.15
452,kolokani,51,ML,1616122890,13,13.5728,-8.0339,27.91,2.25
453,boden,0,SE,1616122890,85,65.8252,21.6886,-13.0,2.57
454,rorvik,87,NO,1616122891,73,64.8621,11.2373,1.11,7.94
455,qena,0,EG,1616122891,47,26.1615,32.7183,15.0,2.09
456,honningsvag,100,NO,1616122891,73,70.9821,25.9704,-3.86,15.74
457,camopi,58,GF,1616122892,99,3.1655,-52.3158,20.67,1.13
458,omboue,100,GA,1616122892,84,-1.5746,9.2618,24.8,0.97
459,cayenne,20,GF,1616122893,94,4.9333,-52.3333,26.11,1.03
460,tamsweg,94,AT,1616122893,79,47.1281,13.811,-6.11,1.53
461,wajir,90,KE,1616122894,64,1.7471,40.0573,25.52,6.46
462,harnosand,0,SE,1616122894,62,62.6323,17.9379,-6.11,4.63
463,gazojak,88,TM,1616122894,70,41.1875,61.4036,11.55,4.16
464,altay,0,CN,1616122894,70,47.8667,88.1167,-10.36,0.95
465,minab,0,IR,1616122470,60,27.1467,57.0801,20.0,2.06
466,rajpipla,40,IN,1616122895,47,21.8667,73.5,25.0,1.54
467,chak jhumra,0,PK,1616122895,32,31.5678,73.1835,23.12,2.55
468,mandapam,90,IN,1616122895,69,9.2833,79.1167,27.24,4.44
469,morant bay,20,JM,1616122895,74,17.8815,-76.4093,27.0,1.54
470,rawson,96,AR,1616122442,36,-43.3002,-65.1023,19.75,8.39
471,vytegra,100,RU,1616122896,96,61.0064,36.4481,-10.94,1.56
472,jilib,81,SO,1616122896,95,0.4883,42.7854,22.42,1.58
473,sturlic,2,BA,1616122896,89,45.0639,15.7781,-3.33,0.45
474,molo,93,KE,1616122896,86,-0.2479,35.7374,10.42,1.04
475,arrifes,75,PT,1616122422,77,37.7667,-25.7,15.0,4.12
476,ballina,90,AU,1616122450,73,-28.8667,153.5667,26.0,1.54
477,bonthe,0,SL,1616122897,79,7.5264,-12.505,25.02,1.81
478,iskateley,39,RU,1616122897,97,67.6803,53.1512,-25.72,4.04
479,kutum,71,SD,1616122465,24,14.2,24.6667,20.94,6.23
480,touros,40,BR,1616122417,94,-5.1989,-35.4608,24.0,1.54
481,tsabong,91,BW,1616122427,43,-26.0217,22.401,25.44,2.52
482,ancona,18,IT,1616122898,93,43.55,13.1667,1.67,1.54
483,igra,84,RU,1616122898,97,57.5558,53.0547,-8.05,1.6
484,whithorn,40,JM,1616122899,78,18.2604,-78.0378,26.0,4.63
485,cserkeszolo,0,HU,1616122899,64,46.8632,20.187,1.11,3.09
486,yazman,0,PK,1616122899,31,29.1212,71.7446,23.08,4.31
487,awbari,96,LY,1616122899,22,26.5921,12.7805,19.76,4.11
488,requena,91,ES,1616122899,83,39.4883,-1.1004,6.67,2.81
489,novyy yarychiv,100,UA,1616122900,100,49.9044,24.3052,-3.33,1.0
490,pervomayskiy,54,RU,1616122900,95,53.2485,40.2871,-7.58,1.8
491,ferme-neuve,0,CA,1616122900,42,46.7001,-75.4493,-6.0,5.14
492,lichtenfels,81,DE,1616122900,82,50.1457,11.0593,1.11,1.4
493,siuna,100,NI,1616122901,97,13.7332,-84.7773,21.85,1.14
494,palasa,100,IN,1616122707,33,18.7667,84.4167,29.72,1.91
495,mwene-ditu,67,CD,1616122901,91,-7.0,23.45,17.53,1.08
496,bhag,3,PK,1616122901,22,29.0415,67.8239,27.46,3.53
497,estelle,20,US,1616122901,63,29.8458,-90.1067,16.11,2.57
498,rio grande,30,BR,1616122452,79,-32.035,-52.0986,18.79,4.11
499,praia da vitoria,75,PT,1616122902,88,38.7333,-27.0667,15.0,4.86
500,camana,99,PE,1616122902,88,-16.6228,-72.7111,21.26,2.32
501,mattru,13,SL,1616122478,86,7.6244,-11.8332,23.58,0.78
502,tabou,100,CI,1616122903,89,4.423,-7.3528,24.6,1.72
503,port hawkesbury,90,CA,1616122415,93,45.6169,-61.3485,4.0,3.79
504,raudeberg,6,NO,1616122903,95,61.9875,5.1352,1.67,1.98
505,bella union,0,UY,1616122903,56,-30.2752,-57.6007,17.18,4.63
506,misratah,90,LY,1616122903,83,32.3754,15.0925,16.21,6.79
507,sao felix do xingu,100,BR,1616122904,98,-6.6447,-51.995,22.06,1.44
508,achutupo,96,PA,1616122904,88,9.2,-77.9833,25.34,2.31
509,den helder,0,NL,1616122461,75,52.9599,4.7593,4.0,4.63
510,mangrol,0,IN,1616122904,75,21.1167,70.1167,24.58,4.02
511,barreirinha,100,BR,1616122904,98,-2.7933,-57.07,22.34,0.26
512,ouesso,89,CG,1616122905,89,1.6136,16.0517,20.92,0.3
513,carbonia,75,IT,1616122905,87,39.1672,8.5222,6.11,2.06
514,nsanje,0,MW,1616122906,98,-16.92,35.262,21.63,1.18
515,valparaiso,0,CL,1616122907,94,-33.0393,-71.6273,12.0,0.51
516,sol-iletsk,89,RU,1616122908,90,51.1631,54.9918,-0.22,5.72
517,marsh harbour,0,BS,1616122410,81,26.5412,-77.0636,23.53,7.61
518,lahan,49,NP,1616122909,20,26.7296,86.4951,27.51,2.82
519,maurawan,75,IN,1616122911,73,26.4333,80.8833,24.0,1.54
520,ormara,0,PK,1616122393,62,25.2088,64.6357,23.87,1.72
521,sistranda,40,NO,1616122452,93,63.7256,8.834,2.0,5.14
522,nisia floresta,20,BR,1616122914,83,-6.0911,-35.2086,26.0,2.06
523,chokwe,0,MZ,1616122916,91,-24.5333,32.9833,21.55,1.25
524,lawrenceburg,90,US,1616122918,81,38.0373,-84.8966,7.22,5.66
525,busayra,0,JO,1616122919,66,30.7376,35.6078,6.6,1.22
526,coihaique,0,CL,1616122920,50,-45.5752,-72.0662,12.0,1.03
527,severnoye,100,RU,1616122920,90,56.3491,78.3619,-8.43,4.98
528,ilorin,93,NG,1616122629,72,8.5,4.55,25.55,3.96
529,terra santa,100,BR,1616122451,98,-2.1042,-56.4869,22.22,1.14
530,itaituba,100,BR,1616122920,99,-4.2761,-55.9836,22.38,0.84
531,nyakahanga,62,TZ,1616122921,92,-1.6033,31.1414,13.91,0.49
532,moose factory,90,CA,1616122378,67,51.2585,-80.6094,-11.0,2.57
533,fulnek,90,CZ,1616122922,93,49.7124,17.9032,-2.0,1.54
534,camacha,40,PT,1616122922,77,33.0833,-16.3333,16.0,6.69
535,jaynagar-majilpur,40,IN,1616122922,57,22.1758,88.4178,27.0,3.14
536,puerto narino,40,CO,1616122923,100,-3.7703,-70.3831,24.0,1.05
537,jinka,42,ET,1616122924,86,5.65,36.65,16.65,1.11
538,ipora,96,BR,1616122924,93,-16.4419,-51.1178,19.98,0.95
539,axim,100,GH,1616122924,80,4.8699,-2.2405,25.33,1.92
540,igarka,99,RU,1616122925,84,67.4667,86.5833,-25.56,2.51
541,winter garden,56,US,1616122925,87,28.5653,-81.5862,23.89,6.76
542,puerto baquerizo moreno,55,EC,1616122927,79,-0.9,-89.6,26.14,3.71
543,canton,75,CN,1616122823,65,23.1167,113.25,30.0,2.0
544,smithfield,90,US,1616122927,100,41.922,-71.5495,5.56,5.66
545,urengoy,100,RU,1616122928,95,65.9667,78.3667,-14.62,2.77
546,imbituba,40,BR,1616122402,53,-28.24,-48.6703,24.0,2.57
547,botwood,100,CA,1616122928,91,49.1499,-55.3482,1.11,0.89
548,biltine,0,TD,1616122470,14,14.5333,20.9167,29.13,9.5
549,vangaindrano,90,MG,1616122393,91,-23.35,47.6,23.09,1.37
550,yarim,78,YE,1616122929,28,14.298,44.3779,10.53,1.75
551,bantva,0,IN,1616122929,88,21.4864,70.0689,22.0,2.06
552,chama,75,CH,1616122929,93,47.1821,8.4636,0.0,1.28
553,narayanpet,76,IN,1616122929,32,16.7333,77.5,27.09,2.06
554,contai,99,IN,1616122930,43,21.7786,87.7536,28.84,3.27
555,yako,8,BF,1616122930,15,12.9667,-2.2667,23.12,1.79
556,terme,75,TR,1616122930,87,41.2092,36.9739,9.44,2.06
557,jumla,99,NP,1616122401,37,29.2747,82.1838,12.41,1.26
558,kapiri mposhi,97,ZM,1616122931,98,-13.9652,28.6809,15.69,1.66
559,quthing,3,LS,1616122931,57,-30.4,27.7003,13.28,1.18
560,teguise,20,ES,1616122931,72,29.0605,-13.564,18.0,5.66
561,kifri,0,IQ,1616122931,40,34.6959,44.9661,12.64,4.09
562,chulumani,76,BO,1616122931,93,-16.4096,-67.5263,15.3,0.91
563,iquitos,90,PE,1616122932,94,-3.7481,-73.2472,24.0,1.54
564,alghero,0,IT,1616122932,93,40.5589,8.3181,5.0,2.06
565,hingoli,76,IN,1616122932,28,19.7167,77.15,30.42,3.52
566,havelock,88,US,1616122932,86,34.8791,-76.9013,20.56,4.02
567,havre-saint-pierre,90,CA,1616122933,74,50.2334,-63.5986,-3.0,9.26
568,elizabeth city,40,US,1616122933,88,36.2946,-76.2511,19.0,4.12
569,zell am see,89,AT,1616122933,95,47.3256,12.7944,-5.0,1.37
570,tromso,0,NO,1616122414,46,69.6496,18.957,-3.0,13.89
571,chimbote,100,PE,1616122933,75,-9.0853,-78.5783,22.62,2.52
572,tatarsk,100,RU,1616122934,83,55.219,75.9828,-9.34,5.32
573,viedma,0,AR,1616122414,37,-40.8135,-62.9967,15.11,4.7
574,hopkinsville,95,US,1616122934,93,36.8656,-87.4886,7.22,1.34
575,bay roberts,100,CA,1616122934,87,47.5999,-53.2648,3.33,1.79
576,barbacena,100,BR,1616122934,93,-21.2258,-43.7736,19.44,1.83
577,saint andrews,1,US,1616122935,52,34.0454,-81.1293,22.0,10.29
578,florianopolis,40,BR,1616122935,53,-27.6146,-48.5012,26.67,2.57
579,abay,0,KZ,1616122395,62,49.6311,72.8539,-8.0,8.0
580,bilma,12,NE,1616122394,18,18.6853,12.9164,25.49,2.65
581,guatire,77,VE,1616122936,97,10.4762,-66.5427,19.19,0.25
582,san ramon de la nueva oran,100,AR,1616122936,90,-23.1322,-64.326,21.67,0.37
583,weligama,100,LK,1616122937,73,5.9667,80.4167,27.5,0.74
584,sivas,75,TR,1616122937,100,39.7916,37.0019,-5.0,4.12
585,copiapo,90,CL,1616122937,82,-27.3667,-70.3333,16.0,0.62
586,beira,11,MZ,1616122937,93,-19.8436,34.8389,22.65,2.57
587,santo angelo,0,BR,1616122938,88,-28.2992,-54.2631,16.11,3.1
588,bahawalpur,0,PK,1616122796,36,29.4,71.6833,22.41,4.16
589,puerto cabezas,100,NI,1616122426,91,14.0351,-83.3888,24.5,4.26
590,kerch,70,UA,1616122490,89,45.3583,36.4758,6.05,7.25
591,port-cartier,75,CA,1616122938,52,50.0334,-66.8654,-10.0,9.77
592,bethausen,100,RO,1616122939,100,45.8331,21.9528,1.11,2.57
